benchmark_case_id,expected_name,expected_category,municipality,macro_region,neighborhood_or_area,latitude,longitude,name_query,category_query,nearby_radius_m,autocomplete_query,ownership_type,business_size,review_status,review_method,review_note
GSP-001,Smart Fit Shopping Light,gym_chain,São Paulo,Centro,República,-23.5465616567,-46.6386416614,Smart Fit Shopping Light São Paulo,academia República,2000,Smart Fit Shopping,private,chain,approved,official_operator_page_2026_07_16,Official Smart Fit unit page confirms identity address and embedded map coordinates
GSP-002,Smart Fit Liberdade,gym_chain,São Paulo,Centro,Liberdade,-23.5604218237,-46.6385756736,Smart Fit Liberdade São Paulo,academia Liberdade,2000,Smart Fit Lib,private,chain,approved,official_operator_page_2026_07_16,Official Smart Fit unit page confirms identity address and embedded map coordinates
GSP-003,Bluefit Centro Histórico,gym_chain,São Paulo,Centro,Centro Histórico,-23.5489,-46.6388,Bluefit Centro Histórico São Paulo,academia Centro São Paulo,2000,Bluefit Centro,private,chain,uncertain,manual_metadata_screen,Identity coordinate or operating status needs independent confirmation before full benchmark
GSP-004,Sesc 24 de Maio,public_sports_center,São Paulo,Centro,República,-23.5458,-46.6392,Sesc 24 de Maio,centro esportivo República,2000,Sesc 24,private,regional,approved,manual_landmark_baseline,Existing curated landmark baseline retained; independent recheck still recommended
GSP-005,Sesc Consolação,public_sports_center,São Paulo,Centro,Consolação,-23.5509,-46.6522,Sesc Consolação,centro esportivo Consolação,2000,Sesc Consol,private,regional,approved,manual_landmark_baseline,Existing curated landmark baseline retained; independent recheck still recommended
GSP-006,Parque Augusta,public_park,São Paulo,Centro,Consolação,-23.5502,-46.6540,Parque Augusta São Paulo,parque Consolação,2500,Parque Aug,public,public,approved,manual_landmark_baseline,Existing curated landmark baseline retained; independent recheck still recommended
GSP-007,Praça Roosevelt,sports_court,São Paulo,Centro,Consolação,-23.5484,-46.6468,Praça Roosevelt São Paulo,pista de skate Centro,2500,Praça Roos,public,public,approved,manual_landmark_baseline,Existing curated landmark baseline retained; independent recheck still recommended
GSP-008,Pista de Skate do Anhangabaú,sports_court,São Paulo,Centro,Anhangabaú,-23.5472,-46.6370,Pista de Skate Anhangabaú,pista de skate Anhangabaú,2000,Pista Anhan,public,public,uncertain,manual_metadata_screen,Identity coordinate or operating status needs independent confirmation before full benchmark
GSP-009,Mercado Livre Arena Pacaembu,football_field,São Paulo,Centro,Pacaembu,-23.5489,-46.6652,Mercado Livre Arena Pacaembu,estádio Pacaembu,2500,Arena Paca,private,regional,approved,manual_landmark_baseline,Existing curated landmark baseline retained; independent recheck still recommended
GSP-010,Parque da Aclimação,public_park,São Paulo,Centro,Aclimação,-23.5714,-46.6296,Parque da Aclimação,parque Aclimação,2500,Parque Acli,public,public,approved,manual_landmark_baseline,Existing curated landmark baseline retained; independent recheck still recommended
GSP-011,Centro Esportivo Cambuci,public_sports_center,São Paulo,Centro,Cambuci,-23.5668,-46.6208,Centro Esportivo Cambuci,centro esportivo Cambuci,2500,Centro Esp Camb,public,public,uncertain,manual_metadata_screen,Identity coordinate or operating status needs independent confirmation before full benchmark
GSP-012,ACM Centro,sports_club,São Paulo,Centro,Bela Vista,-23.5543,-46.6451,ACM Centro São Paulo,clube esportivo Bela Vista,2500,ACM Centro,private,regional,uncertain,manual_metadata_screen,Identity coordinate or operating status needs independent confirmation before full benchmark
GSP-013,Academia Gaviões Paulista,gym_chain,São Paulo,Centro,Bela Vista,-23.5588,-46.6494,Academia Gaviões Paulista,academia Bela Vista,2000,Gaviões Paulista,private,regional,approved,official_operator_page_2026_07_16,Official Gaviões unit page confirms current name and Rua Treze de Maio 812 address; coordinate remains approximate to the confirmed address
GSP-014,Bio Ritmo Conjunto Nacional - Paulista,gym_chain,São Paulo,Centro,Bela Vista,-23.5587030847,-46.6622367850,Bio Ritmo Paulista,academia Avenida Paulista,2000,Bio Ritmo Paul,private,chain,approved,official_operator_page_2026_07_16,Official Bio Ritmo unit page confirms identity address and embedded map coordinates
GSP-015,Bodytech Shopping Cidade São Paulo,gym_chain,São Paulo,Centro,Bela Vista,-23.5630,-46.6543,Bodytech Shopping Cidade São Paulo,academia shopping Paulista,2000,Bodytech Cidade,private,chain,uncertain,manual_metadata_screen,Identity coordinate or operating status needs independent confirmation before full benchmark
GSP-016,Competition Higienópolis,gym_chain,São Paulo,Centro,Higienópolis,-23.5444,-46.6576,Competition Higienópolis,academia Higienópolis,2000,Competition Hig,private,regional,uncertain,manual_metadata_screen,Identity coordinate or operating status needs independent confirmation before full benchmark
GSP-017,Parque Villa-Lobos,public_park,São Paulo,Zona Oeste,Alto de Pinheiros,-23.5467,-46.7276,Parque Villa-Lobos,parque Alto de Pinheiros,3000,Parque Villa,public,public,approved,manual_landmark_baseline,Existing curated landmark baseline retained; independent recheck still recommended
GSP-018,Parque do Povo,public_park,São Paulo,Zona Oeste,Itaim Bibi,-23.5874,-46.6893,Parque do Povo São Paulo,parque Itaim Bibi,2500,Parque do Pov,public,public,approved,manual_landmark_baseline,Existing curated landmark baseline retained; independent recheck still recommended
GSP-019,Praça Pôr do Sol,public_park,São Paulo,Zona Oeste,Vila Madalena,-23.5526,-46.7034,Praça Pôr do Sol,parque Vila Madalena,2500,Praça Pôr,public,public,approved,manual_landmark_baseline,Existing curated landmark baseline retained; independent recheck still recommended
GSP-020,CEPEUSP,sports_club,São Paulo,Zona Oeste,Butantã,-23.5605,-46.7213,CEPEUSP São Paulo,centro esportivo USP,3500,CEPEUSP,public,public,approved,manual_landmark_baseline,Existing curated landmark baseline retained; independent recheck still recommended
GSP-021,Sesc Pompeia,public_sports_center,São Paulo,Zona Oeste,Pompeia,-23.5257,-46.6806,Sesc Pompeia,centro esportivo Pompeia,2500,Sesc Pomp,private,regional,approved,manual_landmark_baseline,Existing curated landmark baseline retained; independent recheck still recommended
GSP-022,Clube Alto dos Pinheiros,sports_club,São Paulo,Zona Oeste,Alto de Pinheiros,-23.5478,-46.7107,Clube Alto dos Pinheiros,clube esportivo Alto de Pinheiros,2500,Clube Alto,private,local,uncertain,manual_metadata_screen,Identity coordinate or operating status needs independent confirmation before full benchmark
GSP-023,Esporte Clube Pinheiros,sports_club,São Paulo,Zona Oeste,Jardim Europa,-23.5812,-46.7010,Esporte Clube Pinheiros,clube esportivo Pinheiros,2500,Esporte Clube P,private,regional,approved,manual_landmark_baseline,Existing curated landmark baseline retained; independent recheck still recommended
GSP-024,A Hebraica São Paulo,sports_club,São Paulo,Zona Oeste,Jardim Paulistano,-23.5837,-46.7036,A Hebraica São Paulo,clube esportivo Jardim Paulistano,2500,Hebraica,private,regional,approved,manual_landmark_baseline,Existing curated landmark baseline retained; independent recheck still recommended
GSP-025,Smart Fit Pinheiros,gym_chain,São Paulo,Zona Oeste,Pinheiros,-23.5677159697,-46.6876223796,Smart Fit Pinheiros,academia Pinheiros,2000,Smart Fit Pinh,private,chain,approved,official_operator_page_2026_07_16,Official Smart Fit unit page confirms identity address and embedded map coordinates
GSP-026,Bluefit Leopoldina,gym_chain,São Paulo,Zona Oeste,Vila Leopoldina,-23.5341637732,-46.7281170831,Bluefit Leopoldina São Paulo,academia Vila Leopoldina,2500,Bluefit Leopoldina,private,chain,approved,official_operator_page_2026_07_16,Official Bluefit unit page and first-party unit endpoint confirm identity address and map coordinates
GSP-027,Bio Ritmo Pinheiros,gym_chain,São Paulo,Zona Oeste,Pinheiros,-23.5682,-46.6925,Bio Ritmo Pinheiros,academia Pinheiros,2000,Bio Ritmo Pinh,private,chain,uncertain,manual_metadata_screen,Identity coordinate or operating status needs independent confirmation before full benchmark
GSP-028,Bodytech Shopping Eldorado,gym_chain,São Paulo,Zona Oeste,Pinheiros,-23.5721,-46.6952,Bodytech Shopping Eldorado,academia Shopping Eldorado,2000,Bodytech Eld,private,chain,uncertain,manual_metadata_screen,Identity coordinate or operating status needs independent confirmation before full benchmark
GSP-029,CrossFit 79,crossfit_box,São Paulo,Zona Oeste,Pinheiros,-23.570757,-46.698393,CrossFit 79 São Paulo,box crossfit Pinheiros,2500,CrossFit 79,private,local,approved,official_affiliate_directory_2026_07_16,Official CrossFit affiliate directory confirms identity address and map coordinates
GSP-030,Competition Oscar Freire,gym_chain,São Paulo,Zona Oeste,Pinheiros,-23.5616,-46.6763,Competition Oscar Freire,academia Oscar Freire,2000,Competition Osc,private,regional,uncertain,manual_metadata_screen,Identity coordinate or operating status needs independent confirmation before full benchmark
GSP-031,Studio Velocity Pinheiros,functional_studio,São Paulo,Zona Oeste,Pinheiros,-23.5658,-46.6847,Velocity Pinheiros,studio de bike indoor Pinheiros,2000,Velocity Pinh,private,chain,uncertain,manual_metadata_screen,Identity coordinate or operating status needs independent confirmation before full benchmark
GSP-032,Parque Zilda Natel,public_park,São Paulo,Zona Oeste,Sumaré,-23.5537,-46.6777,Parque Zilda Natel,parque Sumaré,2000,Parque Zilda,public,public,approved,manual_landmark_baseline,Existing curated landmark baseline retained; independent recheck still recommended
GSP-033,Parque Ibirapuera,public_park,São Paulo,Zona Sul,Ibirapuera,-23.5874,-46.6576,Parque Ibirapuera,parque Ibirapuera,3500,Parque Ibir,public,public,approved,manual_landmark_baseline,Existing curated landmark baseline retained; independent recheck still recommended
GSP-034,Parque Burle Marx,public_park,São Paulo,Zona Sul,Panamby,-23.6314,-46.7224,Parque Burle Marx,parque Panamby,3000,Parque Burle,public,public,approved,manual_landmark_baseline,Existing curated landmark baseline retained; independent recheck still recommended
GSP-035,Parque Severo Gomes,public_park,São Paulo,Zona Sul,Granja Julieta,-23.6316,-46.7012,Parque Severo Gomes,parque Granja Julieta,2500,Parque Severo,public,public,approved,manual_landmark_baseline,Existing curated landmark baseline retained; independent recheck still recommended
GSP-036,Parque Santo Dias,public_park,São Paulo,Zona Sul,Capão Redondo,-23.6645,-46.7674,Parque Santo Dias,parque Capão Redondo,3000,Parque Santo,public,public,approved,manual_landmark_baseline,Existing curated landmark baseline retained; independent recheck still recommended
GSP-037,Parque Praia do Sol,public_park,São Paulo,Zona Sul,Guarapiranga,-23.6809,-46.7319,Parque Praia do Sol Guarapiranga,parque Guarapiranga,4000,Parque Praia,public,public,uncertain,manual_metadata_screen,Identity coordinate or operating status needs independent confirmation before full benchmark
GSP-038,Parque Nabuco,public_park,São Paulo,Zona Sul,Jabaquara,-23.6543,-46.6474,Parque Nabuco São Paulo,parque Jabaquara,2500,Parque Nabuco,public,public,approved,manual_landmark_baseline,Existing curated landmark baseline retained; independent recheck still recommended
GSP-039,Centro Olímpico de Treinamento e Pesquisa,public_sports_center,São Paulo,Zona Sul,Moema,-23.6021,-46.6609,Centro Olímpico de Treinamento e Pesquisa,centro esportivo Moema,2500,Centro Olímp,public,public,approved,manual_landmark_baseline,Existing curated landmark baseline retained; independent recheck still recommended
GSP-040,Sesc Santo Amaro,public_sports_center,São Paulo,Zona Sul,Santo Amaro,-23.6548,-46.7105,Sesc Santo Amaro,centro esportivo Santo Amaro,2500,Sesc Santo,private,regional,approved,manual_landmark_baseline,Existing curated landmark baseline retained; independent recheck still recommended
GSP-041,Sesc Vila Mariana,public_sports_center,São Paulo,Zona Sul,Vila Mariana,-23.5884,-46.6368,Sesc Vila Mariana,centro esportivo Vila Mariana,2500,Sesc Vila M,private,regional,approved,manual_landmark_baseline,Existing curated landmark baseline retained; independent recheck still recommended
GSP-042,Clube Paineiras do Morumby,sports_club,São Paulo,Zona Sul,Morumbi,-23.5956,-46.7150,Clube Paineiras do Morumby,clube esportivo Morumbi,3000,Clube Paine,private,regional,approved,manual_landmark_baseline,Existing curated landmark baseline retained; independent recheck still recommended
GSP-043,Smart Fit Vila Mariana,gym_chain,São Paulo,Zona Sul,Vila Mariana,-23.5892,-46.6345,Smart Fit Vila Mariana,academia Vila Mariana,2000,Smart Fit Vila M,private,chain,uncertain,manual_metadata_screen,Identity coordinate or operating status needs independent confirmation before full benchmark
GSP-044,Smart Fit Moema,gym_chain,São Paulo,Zona Sul,Moema,-23.6034,-46.6664,Smart Fit Moema,academia Moema,2000,Smart Fit Moe,private,chain,uncertain,manual_metadata_screen,Identity coordinate or operating status needs independent confirmation before full benchmark
GSP-045,Bluefit Jabaquara,gym_chain,São Paulo,Zona Sul,Jabaquara,-23.6462,-46.6411,Bluefit Jabaquara,academia Jabaquara,2500,Bluefit Jaba,private,chain,uncertain,manual_metadata_screen,Identity coordinate or operating status needs independent confirmation before full benchmark
GSP-046,Alliance Jiu Jitsu São Paulo,martial_arts_gym,São Paulo,Zona Sul,Vila Mariana,-23.5864,-46.6401,Alliance Jiu Jitsu São Paulo,jiu jitsu Vila Mariana,2500,Alliance Jiu,private,regional,uncertain,manual_metadata_screen,Identity coordinate or operating status needs independent confirmation before full benchmark
GSP-047,Studio 3 Espaço de Dança,dance_studio,São Paulo,Zona Sul,Vila Mariana,-23.5869,-46.6454,Studio 3 Espaço de Dança,studio de dança Vila Mariana,2500,Studio 3,private,local,uncertain,manual_metadata_screen,Identity coordinate or operating status needs independent confirmation before full benchmark
GSP-048,Instituto Cohen,rehabilitation_center,São Paulo,Zona Sul,Moema,-23.6039,-46.6687,Instituto Cohen São Paulo,fisioterapia esportiva Moema,2500,Instituto Coh,private,regional,uncertain,manual_metadata_screen,Identity coordinate or operating status needs independent confirmation before full benchmark
GSP-049,Instituto Vita,rehabilitation_center,São Paulo,Zona Sul,Vila Clementino,-23.5983,-46.6449,Instituto Vita São Paulo,reabilitação esportiva Vila Clementino,2500,Instituto Vita,private,regional,uncertain,manual_metadata_screen,Identity coordinate or operating status needs independent confirmation before full benchmark
GSP-050,Studio Pilates Vila Mariana,pilates_studio,São Paulo,Zona Sul,Vila Mariana,-23.5901,-46.6370,Studio Pilates Vila Mariana,pilates Vila Mariana,2000,Studio Pilates V,private,local,uncertain,manual_metadata_screen,Identity coordinate or operating status needs independent confirmation before full benchmark
GSP-051,Velocity Vila Nova Conceição,functional_studio,São Paulo,Zona Sul,Vila Nova Conceição,-23.5929,-46.6719,Velocity Vila Nova Conceição,studio de bike indoor Vila Nova Conceição,2000,Velocity Vila N,private,chain,uncertain,manual_metadata_screen,Identity coordinate or operating status needs independent confirmation before full benchmark
GSP-052,Parque do Chuvisco,public_park,São Paulo,Zona Sul,Campo Belo,-23.6365,-46.6683,Parque do Chuvisco,parque Campo Belo,2500,Parque Chu,public,public,approved,manual_landmark_baseline,Existing curated landmark baseline retained; independent recheck still recommended
GSP-053,Parque da Juventude,public_park,São Paulo,Zona Norte,Santana,-23.5085,-46.6230,Parque da Juventude São Paulo,parque Santana,3000,Parque Juvent,public,public,approved,manual_landmark_baseline,Existing curated landmark baseline retained; independent recheck still recommended
GSP-054,Horto Florestal,public_park,São Paulo,Zona Norte,Horto Florestal,-23.4593,-46.6325,Horto Florestal São Paulo,parque Zona Norte,4000,Horto Flor,public,public,approved,manual_landmark_baseline,Existing curated landmark baseline retained; independent recheck still recommended
GSP-055,Núcleo Pedra Grande Cantareira,public_park,São Paulo,Zona Norte,Tremembé,-23.4385,-46.6328,Núcleo Pedra Grande Cantareira,parque Cantareira,5000,Núcleo Pedra,public,public,approved,manual_landmark_baseline,Existing curated landmark baseline retained; independent recheck still recommended
GSP-056,Parque Cidade de Toronto,public_park,São Paulo,Zona Norte,Pirituba,-23.5021,-46.7286,Parque Cidade de Toronto,parque Pirituba,3500,Parque Cidade T,public,public,approved,manual_landmark_baseline,Existing curated landmark baseline retained; independent recheck still recommended
GSP-057,Sesc Santana,public_sports_center,São Paulo,Zona Norte,Santana,-23.5029,-46.6271,Sesc Santana,centro esportivo Santana,2500,Sesc Sant,private,regional,approved,manual_landmark_baseline,Existing curated landmark baseline retained; independent recheck still recommended
GSP-058,Centro Esportivo Jardim São Paulo,public_sports_center,São Paulo,Zona Norte,Jardim São Paulo,-23.4920,-46.6180,Centro Esportivo Jardim São Paulo,centro esportivo Jardim São Paulo,2500,Centro Esp Jardim,public,public,uncertain,manual_metadata_screen,Identity coordinate or operating status needs independent confirmation before full benchmark
GSP-059,Clube Esperia,sports_club,São Paulo,Zona Norte,Santana,-23.5104,-46.6211,Clube Esperia,clube esportivo Santana,2500,Clube Esper,private,regional,approved,manual_landmark_baseline,Existing curated landmark baseline retained; independent recheck still recommended
GSP-060,Smart Fit Santana,gym_chain,São Paulo,Zona Norte,Santana,-23.5012,-46.6250,Smart Fit Santana,academia Santana,2000,Smart Fit Sant,private,chain,uncertain,manual_metadata_screen,Identity coordinate or operating status needs independent confirmation before full benchmark
GSP-061,Smart Fit Tucuruvi,gym_chain,São Paulo,Zona Norte,Tucuruvi,-23.4801,-46.6034,Smart Fit Tucuruvi,academia Tucuruvi,2000,Smart Fit Tucu,private,chain,uncertain,manual_metadata_screen,Identity coordinate or operating status needs independent confirmation before full benchmark
GSP-062,Bluefit Santana,gym_chain,São Paulo,Zona Norte,Santana,-23.5020,-46.6260,Bluefit Santana,academia Santana,2000,Bluefit Sant,private,chain,uncertain,manual_metadata_screen,Identity coordinate or operating status needs independent confirmation before full benchmark
GSP-063,Academia Gaviões Santana,gym_chain,São Paulo,Zona Norte,Santana,-23.5004,-46.6278,Academia Gaviões Santana,academia Santana,2000,Gaviões Sant,private,regional,uncertain,manual_metadata_screen,Identity coordinate or operating status needs independent confirmation before full benchmark
GSP-064,Panobianco Casa Verde,gym_chain,São Paulo,Zona Norte,Casa Verde,-23.5072,-46.6617,Panobianco Casa Verde,academia Casa Verde,2500,Panobianco Casa,private,regional,uncertain,manual_metadata_screen,Identity coordinate or operating status needs independent confirmation before full benchmark
GSP-065,CrossFit Santana,crossfit_box,São Paulo,Zona Norte,Santana,-23.4993,-46.6240,CrossFit Santana,box crossfit Santana,2500,CrossFit Sant,private,local,uncertain,manual_metadata_screen,Identity coordinate or operating status needs independent confirmation before full benchmark
GSP-066,Parque Lions Clube Tucuruvi,public_park,São Paulo,Zona Norte,Tucuruvi,-23.4751,-46.6019,Parque Lions Clube Tucuruvi,parque Tucuruvi,2500,Parque Lions,public,public,uncertain,manual_metadata_screen,Identity coordinate or operating status needs independent confirmation before full benchmark
GSP-067,Parque do Carmo,public_park,São Paulo,Zona Leste,Itaquera,-23.5758,-46.4673,Parque do Carmo,parque Itaquera,4000,Parque Carmo,public,public,approved,manual_landmark_baseline,Existing curated landmark baseline retained; independent recheck still recommended
GSP-068,CERET,public_sports_center,São Paulo,Zona Leste,Tatuapé,-23.5559,-46.5628,CERET Tatuapé,centro esportivo Tatuapé,3000,CERET,public,public,approved,manual_landmark_baseline,Existing curated landmark baseline retained; independent recheck still recommended
GSP-069,Parque Piqueri,public_park,São Paulo,Zona Leste,Tatuapé,-23.5273,-46.5738,Parque Piqueri,parque Tatuapé,2500,Parque Piq,public,public,approved,manual_landmark_baseline,Existing curated landmark baseline retained; independent recheck still recommended
GSP-070,Parque Ecológico do Tietê,public_park,São Paulo,Zona Leste,Engenheiro Goulart,-23.4968,-46.5191,Parque Ecológico do Tietê,parque Engenheiro Goulart,5000,Parque Ecol T,public,public,approved,manual_landmark_baseline,Existing curated landmark baseline retained; independent recheck still recommended
GSP-071,Sesc Belenzinho,public_sports_center,São Paulo,Zona Leste,Belenzinho,-23.5406,-46.5905,Sesc Belenzinho,centro esportivo Belenzinho,2500,Sesc Belen,private,regional,approved,manual_landmark_baseline,Existing curated landmark baseline retained; independent recheck still recommended
GSP-072,Sesc Itaquera,public_sports_center,São Paulo,Zona Leste,Itaquera,-23.5736,-46.4721,Sesc Itaquera,centro esportivo Itaquera,3500,Sesc Itaq,private,regional,approved,manual_landmark_baseline,Existing curated landmark baseline retained; independent recheck still recommended
GSP-073,Centro Esportivo Tatuapé,public_sports_center,São Paulo,Zona Leste,Tatuapé,-23.5397,-46.5750,Centro Esportivo Tatuapé,centro esportivo Tatuapé,2500,Centro Esp Tat,public,public,uncertain,manual_metadata_screen,Identity coordinate or operating status needs independent confirmation before full benchmark
GSP-074,Arena Corinthians,football_field,São Paulo,Zona Leste,Itaquera,-23.5453,-46.4742,Arena Corinthians,estádio Itaquera,3500,Arena Cor,private,regional,approved,manual_landmark_baseline,Existing curated landmark baseline retained; independent recheck still recommended
GSP-075,Smart Fit Tatuapé,gym_chain,São Paulo,Zona Leste,Tatuapé,-23.5404,-46.5762,Smart Fit Tatuapé,academia Tatuapé,2000,Smart Fit Tat,private,chain,uncertain,manual_metadata_screen,Identity coordinate or operating status needs independent confirmation before full benchmark
GSP-076,Smart Fit Itaquera,gym_chain,São Paulo,Zona Leste,Itaquera,-23.5425,-46.4754,Smart Fit Itaquera,academia Itaquera,2500,Smart Fit Itaq,private,chain,uncertain,manual_metadata_screen,Identity coordinate or operating status needs independent confirmation before full benchmark
GSP-077,Bluefit Tatuapé,gym_chain,São Paulo,Zona Leste,Tatuapé,-23.5421,-46.5689,Bluefit Tatuapé,academia Tatuapé,2000,Bluefit Tat,private,chain,uncertain,manual_metadata_screen,Identity coordinate or operating status needs independent confirmation before full benchmark
GSP-078,Panobianco Mooca,gym_chain,São Paulo,Zona Leste,Mooca,-23.5589,-46.5980,Panobianco Mooca,academia Mooca,2500,Panobianco Moo,private,regional,uncertain,manual_metadata_screen,Identity coordinate or operating status needs independent confirmation before full benchmark
GSP-079,CrossFit Tatuapé,crossfit_box,São Paulo,Zona Leste,Tatuapé,-23.5438,-46.5704,CrossFit Tatuapé,box crossfit Tatuapé,2500,CrossFit Tat,private,local,uncertain,manual_metadata_screen,Identity coordinate or operating status needs independent confirmation before full benchmark
GSP-080,Clube Atlético Juventus,sports_club,São Paulo,Zona Leste,Mooca,-23.5608,-46.5998,Clube Atlético Juventus,clube esportivo Mooca,2500,Clube Juventus,private,regional,approved,manual_landmark_baseline,Existing curated landmark baseline retained; independent recheck still recommended
GSP-081,Bosque Maia,public_park,Guarulhos,Região Metropolitana,Maia,-23.4565,-46.5335,Bosque Maia Guarulhos,parque Guarulhos,3500,Bosque Maia,public,public,approved,manual_landmark_baseline,Existing curated landmark baseline retained; independent recheck still recommended
GSP-082,Parque Fracalanza,public_park,Guarulhos,Região Metropolitana,Vila Augusta,-23.4733,-46.5524,Parque Fracalanza Guarulhos,parque Vila Augusta Guarulhos,3000,Parque Frac,public,public,approved,manual_landmark_baseline,Existing curated landmark baseline retained; independent recheck still recommended
GSP-083,Sesc Guarulhos,public_sports_center,Guarulhos,Região Metropolitana,Jardim Flor do Campo,-23.4527,-46.5012,Sesc Guarulhos,centro esportivo Guarulhos,3500,Sesc Guar,private,regional,approved,manual_landmark_baseline,Existing curated landmark baseline retained; independent recheck still recommended
GSP-084,Smart Fit Maia,gym_chain,Guarulhos,Região Metropolitana,Maia,-23.4583,-46.5315,Smart Fit Maia Guarulhos,academia Maia Guarulhos,2500,Smart Fit Maia,private,chain,uncertain,manual_metadata_screen,Identity coordinate or operating status needs independent confirmation before full benchmark
GSP-085,Bluefit Guarulhos,gym_chain,Guarulhos,Região Metropolitana,Centro,-23.4688,-46.5278,Bluefit Guarulhos,academia Centro Guarulhos,3000,Bluefit Guar,private,chain,uncertain,manual_metadata_screen,Identity coordinate or operating status needs independent confirmation before full benchmark
GSP-086,Parque Chico Mendes Osasco,public_park,Osasco,Região Metropolitana,City Bussocaba,-23.5609,-46.8058,Parque Chico Mendes Osasco,parque Osasco,3500,Parque Chico O,public,public,approved,manual_landmark_baseline,Existing curated landmark baseline retained; independent recheck still recommended
GSP-087,Sesc Osasco,public_sports_center,Osasco,Região Metropolitana,Jardim das Flores,-23.5327,-46.7862,Sesc Osasco,centro esportivo Osasco,3000,Sesc Osasco,private,regional,approved,manual_landmark_baseline,Existing curated landmark baseline retained; independent recheck still recommended
GSP-088,Ginásio José Liberatti,public_sports_center,Osasco,Região Metropolitana,Presidente Altino,-23.5205,-46.7703,Ginásio José Liberatti,ginásio esportivo Osasco,3000,Ginásio Lib,public,public,approved,manual_landmark_baseline,Existing curated landmark baseline retained; independent recheck still recommended
GSP-089,Smart Fit Osasco,gym_chain,Osasco,Região Metropolitana,Centro,-23.5325,-46.7917,Smart Fit Osasco,academia Centro Osasco,2500,Smart Fit Osa,private,chain,uncertain,manual_metadata_screen,Identity coordinate or operating status needs independent confirmation before full benchmark
GSP-090,Bluefit Osasco,gym_chain,Osasco,Região Metropolitana,Centro,-23.5311,-46.7928,Bluefit Osasco,academia Osasco,2500,Bluefit Osa,private,chain,uncertain,manual_metadata_screen,Identity coordinate or operating status needs independent confirmation before full benchmark
GSP-091,Parque Municipal Dom José,public_park,Barueri,Região Metropolitana,Vila Porto,-23.5101,-46.8761,Parque Municipal Dom José,parque Barueri,3500,Parque Dom,public,public,approved,manual_landmark_baseline,Existing curated landmark baseline retained; independent recheck still recommended
GSP-092,Ginásio José Corrêa,public_sports_center,Barueri,Região Metropolitana,Centro,-23.5116,-46.8767,Ginásio José Corrêa,ginásio esportivo Barueri,3000,Ginásio José C,public,public,approved,manual_landmark_baseline,Existing curated landmark baseline retained; independent recheck still recommended
GSP-093,Arena Barueri,football_field,Barueri,Região Metropolitana,Jardim Belval,-23.5134,-46.8992,Arena Barueri,estádio Barueri,4000,Arena Bar,public,public,approved,manual_landmark_baseline,Existing curated landmark baseline retained; independent recheck still recommended
GSP-094,Smart Fit Barueri,gym_chain,Barueri,Região Metropolitana,Centro,-23.5107,-46.8753,Smart Fit Barueri,academia Barueri,2500,Smart Fit Bar,private,chain,uncertain,manual_metadata_screen,Identity coordinate or operating status needs independent confirmation before full benchmark
GSP-095,Bluefit Alphaville,gym_chain,Barueri,Região Metropolitana,Alphaville,-23.4960,-46.8488,Bluefit Alphaville,academia Alphaville,3000,Bluefit Alpha,private,chain,uncertain,manual_metadata_screen,Identity coordinate or operating status needs independent confirmation before full benchmark
GSP-096,Parque Municipal Santana de Parnaíba,public_park,Santana de Parnaíba,Região Metropolitana,Centro,-23.4439,-46.9177,Parque Municipal Santana de Parnaíba,parque Santana de Parnaíba,3500,Parque Mun Sant,public,public,uncertain,manual_metadata_screen,Identity coordinate or operating status needs independent confirmation before full benchmark
GSP-097,Arena de Esportes José Roberto Guimarães,public_sports_center,Santana de Parnaíba,Região Metropolitana,Fazendinha,-23.4507,-46.9010,Arena José Roberto Guimarães Santana de Parnaíba,centro esportivo Santana de Parnaíba,4000,Arena José R,public,public,uncertain,manual_metadata_screen,Identity coordinate or operating status needs independent confirmation before full benchmark
GSP-098,Smart Fit Alphaville,gym_chain,Santana de Parnaíba,Região Metropolitana,Alphaville,-23.4877,-46.8640,Smart Fit Alphaville,academia Alphaville Santana de Parnaíba,3000,Smart Fit Alpha,private,chain,uncertain,manual_metadata_screen,Identity coordinate or operating status needs independent confirmation before full benchmark
GSP-099,Bio Ritmo Alphaville,gym_chain,Santana de Parnaíba,Região Metropolitana,Alphaville,-23.4870,-46.8622,Bio Ritmo Alphaville,academia Alphaville,3000,Bio Ritmo Alpha,private,chain,uncertain,manual_metadata_screen,Identity coordinate or operating status needs independent confirmation before full benchmark
GSP-100,Bodytech Iguatemi Alphaville,gym_chain,Santana de Parnaíba,Região Metropolitana,Alphaville,-23.4866,-46.8610,Bodytech Iguatemi Alphaville,academia Iguatemi Alphaville,3000,Bodytech Alpha,private,chain,uncertain,manual_metadata_screen,Identity coordinate or operating status needs independent confirmation before full benchmark
GSP-101,Parque Gabriel Chucre,public_park,Carapicuíba,Região Metropolitana,Vila Gustavo Correia,-23.5230,-46.8297,Parque Gabriel Chucre,parque Carapicuíba,3500,Parque Gabriel,public,public,approved,manual_landmark_baseline,Existing curated landmark baseline retained; independent recheck still recommended
GSP-102,Ginásio Tancredo Neves,public_sports_center,Carapicuíba,Região Metropolitana,Centro,-23.5237,-46.8407,Ginásio Tancredo Neves Carapicuíba,ginásio esportivo Carapicuíba,3000,Ginásio Tanc,public,public,uncertain,manual_metadata_screen,Identity coordinate or operating status needs independent confirmation before full benchmark
GSP-103,Smart Fit Carapicuíba,gym_chain,Carapicuíba,Região Metropolitana,Centro,-23.5229,-46.8358,Smart Fit Carapicuíba,academia Carapicuíba,2500,Smart Fit Cara,private,chain,uncertain,manual_metadata_screen,Identity coordinate or operating status needs independent confirmation before full benchmark
GSP-104,Panobianco Carapicuíba,gym_chain,Carapicuíba,Região Metropolitana,Centro,-23.5238,-46.8366,Panobianco Carapicuíba,academia Carapicuíba,2500,Panobianco Cara,private,regional,uncertain,manual_metadata_screen,Identity coordinate or operating status needs independent confirmation before full benchmark
GSP-105,Academia Impacto Carapicuíba,neighborhood_gym,Carapicuíba,Região Metropolitana,Cohab,-23.5368,-46.8354,Academia Impacto Carapicuíba,academia de bairro Carapicuíba,3000,Academia Impact,private,local,uncertain,manual_metadata_screen,Identity coordinate or operating status needs independent confirmation before full benchmark
GSP-106,Parque Cemucam,public_park,Cotia,Região Metropolitana,Granja Viana,-23.6020,-46.8422,Parque Cemucam Cotia,parque Cotia,5000,Parque Cem,public,public,approved,manual_landmark_baseline,Existing curated landmark baseline retained; independent recheck still recommended
GSP-107,Parque Teresa Maia,public_park,Cotia,Região Metropolitana,Granja Viana,-23.5906,-46.8272,Parque Teresa Maia,parque Granja Viana,3500,Parque Teresa,public,public,uncertain,manual_metadata_screen,Identity coordinate or operating status needs independent confirmation before full benchmark
GSP-108,Ginásio de Esportes de Cotia,public_sports_center,Cotia,Região Metropolitana,Centro,-23.6039,-46.9190,Ginásio de Esportes de Cotia,ginásio esportivo Cotia,3500,Ginásio Cotia,public,public,uncertain,manual_metadata_screen,Identity coordinate or operating status needs independent confirmation before full benchmark
GSP-109,Smart Fit Granja Viana,gym_chain,Cotia,Região Metropolitana,Granja Viana,-23.5928,-46.8278,Smart Fit Granja Viana,academia Granja Viana,3000,Smart Fit Granja,private,chain,uncertain,manual_metadata_screen,Identity coordinate or operating status needs independent confirmation before full benchmark
GSP-110,Bodytech Granja Vianna,gym_chain,Cotia,Região Metropolitana,Granja Viana,-23.5944,-46.8260,Bodytech Granja Vianna,academia Granja Viana,3000,Bodytech Granja,private,chain,uncertain,manual_metadata_screen,Identity coordinate or operating status needs independent confirmation before full benchmark
GSP-111,Parque das Hortênsias,public_park,Taboão da Serra,Região Metropolitana,Parque Assunção,-23.6099,-46.7673,Parque das Hortênsias Taboão da Serra,parque Taboão da Serra,3500,Parque Hort,public,public,approved,manual_landmark_baseline,Existing curated landmark baseline retained; independent recheck still recommended
GSP-112,CEMUR,public_sports_center,Taboão da Serra,Região Metropolitana,Jardim Maria Rosa,-23.6010,-46.7588,CEMUR Taboão da Serra,centro esportivo Taboão da Serra,3000,CEMUR,public,public,uncertain,manual_metadata_screen,Identity coordinate or operating status needs independent confirmation before full benchmark
GSP-113,Ginásio Ayrton Senna Taboão,public_sports_center,Taboão da Serra,Região Metropolitana,Jardim Helena,-23.6170,-46.7790,Ginásio Ayrton Senna Taboão da Serra,ginásio esportivo Taboão,3500,Ginásio Ayrton T,public,public,uncertain,manual_metadata_screen,Identity coordinate or operating status needs independent confirmation before full benchmark
GSP-114,Smart Fit Taboão da Serra,gym_chain,Taboão da Serra,Região Metropolitana,Centro,-23.6019,-46.7527,Smart Fit Taboão da Serra,academia Taboão da Serra,2500,Smart Fit Tabo,private,chain,uncertain,manual_metadata_screen,Identity coordinate or operating status needs independent confirmation before full benchmark
GSP-115,Bluefit Taboão da Serra,gym_chain,Taboão da Serra,Região Metropolitana,Centro,-23.6032,-46.7542,Bluefit Taboão da Serra,academia Taboão da Serra,2500,Bluefit Tabo,private,chain,uncertain,manual_metadata_screen,Identity coordinate or operating status needs independent confirmation before full benchmark
GSP-116,Parque do Lago Francisco Rizzo,public_park,Embu das Artes,Região Metropolitana,Centro,-23.6483,-46.8562,Parque do Lago Francisco Rizzo,parque Embu das Artes,4000,Parque Rizzo,public,public,approved,manual_landmark_baseline,Existing curated landmark baseline retained; independent recheck still recommended
GSP-117,Centro Esportivo Hermínio Espósito,public_sports_center,Embu das Artes,Região Metropolitana,Centro,-23.6488,-46.8537,Centro Esportivo Hermínio Espósito,centro esportivo Embu das Artes,3500,Centro Herm,public,public,uncertain,manual_metadata_screen,Identity coordinate or operating status needs independent confirmation before full benchmark
GSP-118,Estádio Municipal Hermínio Espósito,football_field,Embu das Artes,Região Metropolitana,Centro,-23.6497,-46.8519,Estádio Municipal Hermínio Espósito,estádio Embu das Artes,3500,Estádio Herm,public,public,uncertain,manual_metadata_screen,Identity coordinate or operating status needs independent confirmation before full benchmark
GSP-119,Smart Fit Embu das Artes,gym_chain,Embu das Artes,Região Metropolitana,Centro,-23.6481,-46.8501,Smart Fit Embu das Artes,academia Embu das Artes,3000,Smart Fit Embu,private,chain,uncertain,manual_metadata_screen,Identity coordinate or operating status needs independent confirmation before full benchmark
GSP-120,Panobianco Embu das Artes,gym_chain,Embu das Artes,Região Metropolitana,Centro,-23.6470,-46.8520,Panobianco Embu das Artes,academia Embu das Artes,3000,Panobianco Embu,private,regional,uncertain,manual_metadata_screen,Identity coordinate or operating status needs independent confirmation before full benchmark
GSP-121,Parque Central Santo André,public_park,Santo André,Região Metropolitana,Vila Assunção,-23.6702,-46.5308,Parque Central Santo André,parque Santo André,3500,Parque Central SA,public,public,approved,manual_landmark_baseline,Existing curated landmark baseline retained; independent recheck still recommended
GSP-122,Parque Celso Daniel,public_park,Santo André,Região Metropolitana,Jardim,-23.6465,-46.5368,Parque Celso Daniel Santo André,parque Santo André,3000,Parque Celso,public,public,approved,manual_landmark_baseline,Existing curated landmark baseline retained; independent recheck still recommended
GSP-123,Sesc Santo André,public_sports_center,Santo André,Região Metropolitana,Vila Guiomar,-23.6597,-46.5303,Sesc Santo André,centro esportivo Santo André,3000,Sesc Santo A,private,regional,approved,manual_landmark_baseline,Existing curated landmark baseline retained; independent recheck still recommended
GSP-124,Smart Fit Santo André,gym_chain,Santo André,Região Metropolitana,Centro,-23.6634,-46.5327,Smart Fit Santo André,academia Santo André,2500,Smart Fit Santo A,private,chain,uncertain,manual_metadata_screen,Identity coordinate or operating status needs independent confirmation before full benchmark
GSP-125,Panobianco Santo André,gym_chain,Santo André,Região Metropolitana,Centro,-23.6640,-46.5310,Panobianco Santo André,academia Santo André,2500,Panobianco Santo,private,regional,uncertain,manual_metadata_screen,Identity coordinate or operating status needs independent confirmation before full benchmark
GSP-126,Parque Raphael Lazzuri,public_park,São Bernardo do Campo,Região Metropolitana,Nova Petrópolis,-23.6910,-46.5486,Parque Raphael Lazzuri,parque São Bernardo do Campo,3500,Parque Lazz,public,public,approved,manual_landmark_baseline,Existing curated landmark baseline retained; independent recheck still recommended
GSP-127,Parque Estoril,public_park,São Bernardo do Campo,Região Metropolitana,Riacho Grande,-23.7564,-46.5318,Parque Estoril São Bernardo,parque Riacho Grande,5000,Parque Est,public,public,approved,manual_landmark_baseline,Existing curated landmark baseline retained; independent recheck still recommended
GSP-128,Ginásio Poliesportivo Adib Moysés Dib,public_sports_center,São Bernardo do Campo,Região Metropolitana,Planalto,-23.7255,-46.5655,Ginásio Poliesportivo Adib Moysés Dib,ginásio São Bernardo do Campo,4000,Ginásio Adib,public,public,approved,manual_landmark_baseline,Existing curated landmark baseline retained; independent recheck still recommended
GSP-129,Smart Fit São Bernardo,gym_chain,São Bernardo do Campo,Região Metropolitana,Centro,-23.7080,-46.5500,Smart Fit São Bernardo do Campo,academia São Bernardo do Campo,3000,Smart Fit SBC,private,chain,uncertain,manual_metadata_screen,Identity coordinate or operating status needs independent confirmation before full benchmark
GSP-130,Panobianco São Bernardo,gym_chain,São Bernardo do Campo,Região Metropolitana,Centro,-23.7067,-46.5512,Panobianco São Bernardo,academia São Bernardo do Campo,3000,Panobianco SBC,private,regional,uncertain,manual_metadata_screen,Identity coordinate or operating status needs independent confirmation before full benchmark
GSP-131,Parque Chico Mendes São Caetano,public_park,São Caetano do Sul,Região Metropolitana,Cerâmica,-23.6207,-46.5682,Parque Chico Mendes São Caetano,parque São Caetano do Sul,3000,Parque Chico SCS,public,public,approved,manual_landmark_baseline,Existing curated landmark baseline retained; independent recheck still recommended
GSP-132,Complexo Esportivo Lauro Gomes,public_sports_center,São Caetano do Sul,Região Metropolitana,Santa Maria,-23.6256,-46.5567,Complexo Esportivo Lauro Gomes,centro esportivo São Caetano do Sul,3500,Complexo Lauro,public,public,uncertain,manual_metadata_screen,Identity coordinate or operating status needs independent confirmation before full benchmark
GSP-133,Sesc São Caetano,public_sports_center,São Caetano do Sul,Região Metropolitana,Santa Paula,-23.6181,-46.5714,Sesc São Caetano,centro esportivo São Caetano do Sul,2500,Sesc São C,private,regional,approved,manual_landmark_baseline,Existing curated landmark baseline retained; independent recheck still recommended
GSP-134,Smart Fit São Caetano,gym_chain,São Caetano do Sul,Região Metropolitana,Centro,-23.6159,-46.5706,Smart Fit São Caetano do Sul,academia São Caetano do Sul,2500,Smart Fit SCS,private,chain,uncertain,manual_metadata_screen,Identity coordinate or operating status needs independent confirmation before full benchmark
GSP-135,Academia Gaviões São Caetano,gym_chain,São Caetano do Sul,Região Metropolitana,Centro,-23.6168,-46.5697,Academia Gaviões São Caetano,academia São Caetano do Sul,2500,Gaviões SCS,private,regional,uncertain,manual_metadata_screen,Identity coordinate or operating status needs independent confirmation before full benchmark
GSP-136,Parque do Paço Diadema,public_park,Diadema,Região Metropolitana,Centro,-23.6860,-46.6228,Parque do Paço Diadema,parque Diadema,3000,Parque Paço,public,public,approved,manual_landmark_baseline,Existing curated landmark baseline retained; independent recheck still recommended
GSP-137,Parque Ecológico do Eldorado,public_park,Diadema,Região Metropolitana,Eldorado,-23.7088,-46.6118,Parque Ecológico do Eldorado Diadema,parque Eldorado Diadema,3500,Parque Eldor,public,public,uncertain,manual_metadata_screen,Identity coordinate or operating status needs independent confirmation before full benchmark
GSP-138,Ginásio Ayrton Senna Diadema,public_sports_center,Diadema,Região Metropolitana,Centro,-23.6867,-46.6239,Ginásio Ayrton Senna Diadema,ginásio esportivo Diadema,3000,Ginásio Ayrton D,public,public,uncertain,manual_metadata_screen,Identity coordinate or operating status needs independent confirmation before full benchmark
GSP-139,Smart Fit Diadema,gym_chain,Diadema,Região Metropolitana,Centro,-23.6864,-46.6220,Smart Fit Diadema,academia Diadema,2500,Smart Fit Dia,private,chain,uncertain,manual_metadata_screen,Identity coordinate or operating status needs independent confirmation before full benchmark
GSP-140,Panobianco Diadema,gym_chain,Diadema,Região Metropolitana,Centro,-23.6851,-46.6208,Panobianco Diadema,academia Diadema,2500,Panobianco Dia,private,regional,uncertain,manual_metadata_screen,Identity coordinate or operating status needs independent confirmation before full benchmark
GSP-141,Parque Guapituba,public_park,Mauá,Região Metropolitana,Guapituba,-23.6578,-46.4466,Parque Guapituba Mauá,parque Mauá,3500,Parque Guap,public,public,approved,manual_landmark_baseline,Existing curated landmark baseline retained; independent recheck still recommended
GSP-142,Parque da Juventude Mauá,public_park,Mauá,Região Metropolitana,Paço Municipal,-23.6677,-46.4610,Parque da Juventude Mauá,parque Mauá,3500,Parque Juvent M,public,public,uncertain,manual_metadata_screen,Identity coordinate or operating status needs independent confirmation before full benchmark
GSP-143,Ginásio Poliesportivo Celso Daniel,public_sports_center,Mauá,Região Metropolitana,Vila Noêmia,-23.6650,-46.4592,Ginásio Poliesportivo Celso Daniel Mauá,ginásio esportivo Mauá,3000,Ginásio Celso,public,public,uncertain,manual_metadata_screen,Identity coordinate or operating status needs independent confirmation before full benchmark
GSP-144,Smart Fit Mauá,gym_chain,Mauá,Região Metropolitana,Centro,-23.6679,-46.4617,Smart Fit Mauá,academia Mauá,2500,Smart Fit Mau,private,chain,uncertain,manual_metadata_screen,Identity coordinate or operating status needs independent confirmation before full benchmark
GSP-145,Panobianco Mauá,gym_chain,Mauá,Região Metropolitana,Centro,-23.6684,-46.4608,Panobianco Mauá,academia Mauá,2500,Panobianco Mau,private,regional,uncertain,manual_metadata_screen,Identity coordinate or operating status needs independent confirmation before full benchmark
GSP-146,Parque Centenário Mogi,public_park,Mogi das Cruzes,Região Metropolitana,César de Souza,-23.4996,-46.1458,Parque Centenário Mogi das Cruzes,parque Mogi das Cruzes,4000,Parque Cent M,public,public,approved,manual_landmark_baseline,Existing curated landmark baseline retained; independent recheck still recommended
GSP-147,Parque da Cidade Mogi,public_park,Mogi das Cruzes,Região Metropolitana,Alto do Ipiranga,-23.5210,-46.1920,Parque da Cidade Mogi das Cruzes,parque Mogi das Cruzes,3500,Parque Cidade M,public,public,uncertain,manual_metadata_screen,Identity coordinate or operating status needs independent confirmation before full benchmark
GSP-148,Ginásio Municipal Hugo Ramos,public_sports_center,Mogi das Cruzes,Região Metropolitana,Mogilar,-23.5149,-46.1830,Ginásio Municipal Hugo Ramos,ginásio esportivo Mogi das Cruzes,3500,Ginásio Hugo,public,public,approved,manual_landmark_baseline,Existing curated landmark baseline retained; independent recheck still recommended
GSP-149,Smart Fit Mogi das Cruzes,gym_chain,Mogi das Cruzes,Região Metropolitana,Centro,-23.5231,-46.1884,Smart Fit Mogi das Cruzes,academia Mogi das Cruzes,3000,Smart Fit Mogi,private,chain,uncertain,manual_metadata_screen,Identity coordinate or operating status needs independent confirmation before full benchmark
GSP-150,Bluefit Mogi das Cruzes,gym_chain,Mogi das Cruzes,Região Metropolitana,Centro,-23.5220,-46.1870,Bluefit Mogi das Cruzes,academia Mogi das Cruzes,3000,Bluefit Mogi,private,chain,uncertain,manual_metadata_screen,Identity coordinate or operating status needs independent confirmation before full benchmark
GSP-151,Ciclovia Rio Pinheiros,cycling_route,São Paulo,Zona Oeste,Rio Pinheiros,-23.6015,-46.7000,Ciclovia Rio Pinheiros,ciclovia São Paulo,5000,Ciclovia Rio,public,public,approved,manual_landmark_baseline,Existing curated landmark baseline retained; independent recheck still recommended
GSP-152,Ciclovia da Avenida Paulista,cycling_route,São Paulo,Centro,Avenida Paulista,-23.5617,-46.6559,Ciclovia Avenida Paulista,ciclovia Avenida Paulista,3000,Ciclovia Paul,public,public,approved,manual_landmark_baseline,Existing curated landmark baseline retained; independent recheck still recommended
GSP-153,Pista de Cooper do Ibirapuera,running_track,São Paulo,Zona Sul,Ibirapuera,-23.5879,-46.6571,Pista de Cooper Ibirapuera,pista de corrida Ibirapuera,3000,Pista Cooper I,public,public,uncertain,manual_metadata_screen,Identity coordinate or operating status needs independent confirmation before full benchmark
GSP-154,Área de Calistenia Villa-Lobos,calisthenics_area,São Paulo,Zona Oeste,Alto de Pinheiros,-23.5474,-46.7281,Área de Calistenia Parque Villa-Lobos,calistenia Villa-Lobos,3000,Calistenia Villa,public,public,uncertain,manual_metadata_screen,Identity coordinate or operating status needs independent confirmation before full benchmark
GSP-155,Piscina do Centro Olímpico,swimming_pool,São Paulo,Zona Sul,Moema,-23.6020,-46.6613,Piscina Centro Olímpico São Paulo,piscina pública Moema,2500,Piscina Centro O,public,public,uncertain,manual_metadata_screen,Identity coordinate or operating status needs independent confirmation before full benchmark
GSP-156,Quadras do Parque do Povo,sports_court,São Paulo,Zona Oeste,Itaim Bibi,-23.5881,-46.6896,Quadras Parque do Povo,quadra esportiva Itaim Bibi,2500,Quadras Parque P,public,public,uncertain,manual_metadata_screen,Identity coordinate or operating status needs independent confirmation before full benchmark
GSP-157,Campo de Futebol Parque do Carmo,football_field,São Paulo,Zona Leste,Itaquera,-23.5763,-46.4680,Campo de Futebol Parque do Carmo,campo de futebol Itaquera,3500,Campo Parque C,public,public,uncertain,manual_metadata_screen,Identity coordinate or operating status needs independent confirmation before full benchmark
GSP-158,Checkmat BJJ São Paulo,martial_arts_gym,São Paulo,Zona Oeste,Pinheiros,-23.5670,-46.6900,Checkmat BJJ São Paulo,jiu jitsu Pinheiros,2500,Checkmat BJJ,private,regional,uncertain,manual_metadata_screen,Identity coordinate or operating status needs independent confirmation before full benchmark
GSP-159,Espaço Esportivo Comunitário Mooca,other_sports_place,São Paulo,Zona Leste,Mooca,-23.5580,-46.5969,espaço esportivo comunitário Mooca,espaço esportivo Mooca,2500,Espaço Esportivo M,public,public,uncertain,manual_metadata_screen,Identity coordinate or operating status needs independent confirmation before full benchmark
GSP-160,Ironberg Barra Funda,gym,São Paulo,Zona Oeste,Barra Funda,-23.5217275,-46.6712642,Ironberg Barra Funda São Paulo,academia Barra Funda,2500,Ironberg Barra,private,chain,approved,official_operator_page_2026_07_16,Official Ironberg page confirms current Barra Funda unit and embedded map coordinates
